{
    "type": "FeatureCollection",
    "features": [
        {
            "type": "Feature",
            "properties": {
                "type": "point",
                "name": "&laquo;Ягуар&raquo;",
                "description": "Велосипедная трасса, найдена на канале RollAllDay"
            },
            "geometry": {
                "type": "Point",
                "coordinates": [76.935397, 43.190456]
            }
        },
        {
            "type": "Feature",
            "properties": {
                "type": "point",
                "name": "Р-н Каргалы (каргалинка)",
                "description": "Радом конная ферма"
            },
            "geometry": {
                "type": "Point",
                "coordinates": [76.866243, 43.157895]
            }
        },
        {
            "type": "Feature",
            "properties": {
                "type": "point",
                "name": "КБТУ",
                "description": "Точка сбора, площадка для обучения"
            },
            "geometry": {
                "type": "Point",
                "coordinates": [76.943194, 43.256377]
            }
        },
        {
            "type": "Feature",
            "properties": {
                "type": "point",
                "name": "Памп-трек",
                "description": "Асфальтовые кочки, тренировка коленей и подвески"
            },
            "geometry": {
                "type": "Point",
                "coordinates": [76.984305, 43.32182]
            }
        },
        {
            "type": "Feature",
            "properties": {
                "type": "point",
                "name": "Сайран",
                "description": "Фанерный скейт-парк, резиновое покрытие для обучения на моноколесе"
            },
            "geometry": {
                "type": "Point",
                "coordinates": [76.867765, 43.237843]
            }
        },
        {
            "type": "Feature",
            "properties": {
                "type": "point",
                "name": "Стадион в 8 микрорайоне",
                "description": "Резиновое покрытие для обучения на моноколесе"
            },
            "geometry": {
                "type": "Point",
                "coordinates": [76.869417, 43.226284]
            }
        },
        {
            "type": "Feature",
            "properties": {
                "type": "point",
                "name": "Кок жайляу",
                "description": ""
            },
            "geometry": {
                "type": "Point",
                "coordinates": [76.971371, 43.12722]
            }
        },
        {
            "type": "Feature",
            "properties": {
                "type": "socket",
                "name": "Розетка по дороге на Чимбулак",
                "description": "Розетка на электрощите сзади"
            },
            "geometry": {
                "type": "Point",
                "coordinates": [77.074944, 43.133556]
            }
        },
        {
            "type": "Feature",
            "properties": {
                "type": "point",
                "name": "Гераниевая поляна",
                "description": ""
            },
            "geometry": {
                "type": "Point",
                "coordinates": [77.004997, 43.009634]
            }
        },
        {
            "type": "Feature",
            "properties": {
                "type": "point",
                "name": "Хижина БАУ",
                "description": ""
            },
            "geometry": {
                "type": "Point",
                "coordinates": [77.018658, 43.003002]
            }
        },
        {
            "type": "Feature",
            "properties": {
                "type": "point",
                "name": "Хижина Кызылсай",
                "description": ""
            },
            "geometry": {
                "type": "Point",
                "coordinates": [77.06044, 43.016882]
            }
        },
        {
            "type": "Feature",
            "properties": {
                "type": "point",
                "name": "Мынжылкы",
                "description": ""
            },
            "geometry": {
                "type": "Point",
                "coordinates": [77.079339, 43.08449]
            }
        },
        {
            "type": "Feature",
            "properties": {
                "type": "point",
                "name": "Четыре бочки",
                "description": "Обзорная точка города. С неё открывается потрясающий вид на город, конечно же если «поймать» хорошую погоду"
            },
            "geometry": {
                "type": "Point",
                "coordinates": [76.977806, 43.182579]
            }
        },
        {
            "type": "Feature",
            "properties": {
                "type": "point",
                "name": "Замок дяди Вани",
                "description": "Каменный замок или каменная крепость в Аксайском ущелье, которую более 30 лет собственноручно строил архитектор-любитель Иван Плотников"
            },
            "geometry": {
                "type": "Point",
                "coordinates": [76.793656, 43.116331]
            }
        },
        {
            "type": "Feature",
            "properties": {
                "type": "point",
                "name": "Под мостом у ППП",
                "description": "Место встречи - под мостом у Парка Первого Президента"
            },
            "geometry": {
                "type": "Point",
                "coordinates": [76.890703, 43.194404]
            }
        },
        {
            "type": "Feature",
            "properties": {
                "type": "point",
                "name": "Аэропортовское озеро",
                "description": ""
            },
            "geometry": {
                "type": "Point",
                "coordinates": [76.994012, 43.339143]
            }
        },
        {
            "type": "Feature",
            "properties": {
                "type": "point",
                "name": "Туристический Центр Аюсай",
                "description": "Есть розетки, но иногда не разрешают заряжаться"
            },
            "geometry": {
                "type": "Point",
                "coordinates": [76.944726, 43.101416]
            }
        },
        {
            "type": "Feature",
            "properties": {
                "type": "point",
                "name": "Беседка на плотине Есентай",
                "description": "Место встречи"
            },
            "geometry": {
                "type": "Point",
                "coordinates": [76.932896, 43.219106]
            }
        }
    ]
}
