{
    "type": "FeatureCollection",
    "features": [
        {
            "type": "Feature",
            "properties": {
                "type": "point",
                "name": "&laquo;Ягуар&raquo;"
            },
            "geometry": {
                "type": "Point",
                "coordinates": [76.935397, 43.190456]
            }
        },
        {
            "type": "Feature",
            "properties": {
                "type": "point",
                "name": "[заполнить название]"
            },
            "geometry": {
                "type": "Point",
                "coordinates": [76.866243, 43.157895]
            }
        },
        {
            "type": "Feature",
            "properties": {
                "type": "point",
                "name": "КБТУ",
                "description": "Точка сбора, площадка для обучения"
            },
            "geometry": {
                "type": "Point",
                "coordinates": [76.943194, 43.256377]
            }
        },
        {
            "type": "Feature",
            "properties": {
                "type": "point",
                "name": "Памп-трек",
                "description": "Асфальтовые кочки, тренировка коленей и подвески"
            },
            "geometry": {
                "type": "Point",
                "coordinates": [76.984305, 43.32182]
            }
        },
        {
            "type": "Feature",
            "properties": {
                "type": "point",
                "name": "Сайран",
                "description": "Фанерный скейт-парк, резиновое покрытие для обучения на моноколесе"
            },
            "geometry": {
                "type": "Point",
                "coordinates": [76.867765, 43.237843]
            }
        },
        {
            "type": "Feature",
            "properties": {
                "type": "point",
                "name": "Стадион в 8 микрорайоне",
                "description": "Резиновое покрытие для обучения на моноколесе"
            },
            "geometry": {
                "type": "Point",
                "coordinates": [76.869417, 43.226284]
            }
        },
        {
            "type": "Feature",
            "properties": {
                "type": "point",
                "name": "Кок жайляу",
                "description": ""
            },
            "geometry": {
                "type": "Point",
                "coordinates": [76.971371, 43.12722]
            }
        },
        {
            "type": "Feature",
            "properties": {
                "type": "socket",
                "name": "Розетка по дороге на Чимбулак",
                "description": "Розетка на электрощите сзади"
            },
            "geometry": {
                "type": "Point",
                "coordinates": [77.074944, 43.133556]
            }
        },
        {
            "type": "Feature",
            "properties": {
                "type": "point",
                "name": "Гераниевая поляна",
                "description": ""
            },
            "geometry": {
                "type": "Point",
                "coordinates": [77.004997, 43.009634]
            }
        },
        {
            "type": "Feature",
            "properties": {
                "type": "point",
                "name": "Хижина БАУ",
                "description": ""
            },
            "geometry": {
                "type": "Point",
                "coordinates": [77.018658, 43.003002]
            }
        },
        {
            "type": "Feature",
            "properties": {
                "type": "point",
                "name": "Хижина Кызылсай",
                "description": ""
            },
            "geometry": {
                "type": "Point",
                "coordinates": [77.06044, 43.016882]
            }
        }
    ]
}
